{"type":"FeatureCollection","features":[{"type":"Feature","properties":{"OBJECTID":46888,"NAAM":"Multipharma 87","ID":"ap00755","STRAAT":"Abdijstraat","HUISNR":"42","POSTCODE":"2020","DISTRICT":"ANTWERPEN"},"geometry":{"type":"Point","coordinates":[4.379791621212881,51.18948459199231]}},{"type":"Feature","properties":{"OBJECTID":46889,"NAAM":"Apotheek Wolfs","ID":"ap00756","STRAAT":"Albert Bevernagelei","HUISNR":"89","POSTCODE":"2100","DISTRICT":"DEURNE"},"geometry":{"type":"Point","coordinates":[4.447942992436798,51.233629945675055]}},{"type":"Feature","properties":{"OBJECTID":46890,"NAAM":"Apotheek Van Hoof","ID":"ap00757","STRAAT":"Alfons De Cockstraat","HUISNR":"74","POSTCODE":"2020","DISTRICT":"ANTWERPEN"},"geometry":{"type":"Point","coordinates":[4.372800978415941,51.190000360088035]}},{"type":"Feature","properties":{"OBJECTID":46891,"NAAM":"Apotheek Zuiderkruis","ID":"ap00758","STRAAT":"Amerikalei","HUISNR":"168","POSTCODE":"2000","DISTRICT":"ANTWERPEN"},"geometry":{"type":"Point","coordinates":[4.392020063863349,51.20592483466792]}},{"type":"Feature","properties":{"OBJECTID":46892,"NAAM":"Apotheek Zuid","ID":"ap00759","STRAAT":"Amerikalei","HUISNR":"82","POSTCODE":"2000","DISTRICT":"ANTWERPEN"},"geometry":{"type":"Point","coordinates":[4.397623702791352,51.207676672298305]}},{"type":"Feature","properties":{"OBJECTID":46893,"NAAM":"Apotheek Six","ID":"ap00760","STRAAT":"Ankerrui","HUISNR":"24","POSTCODE":"2000","DISTRICT":"ANTWERPEN"},"geometry":{"type":"Point","coordinates":[4.411517092446749,51.22667127417095]}},{"type":"Feature","properties":{"OBJECTID":46894,"NAAM":"Apotheek Coopmans","ID":"ap00763","STRAAT":"Antwerpsesteenweg","HUISNR":"430","POSTCODE":"2660","DISTRICT":"HOBOKEN"},"geometry":{"type":"Point","coordinates":[4.368364624041709,51.18098032581826]}},{"type":"Feature","properties":{"OBJECTID":46895,"NAAM":"Apotheek Florens","ID":"ap00764","STRAAT":"Antwerpsesteenweg","HUISNR":"90","POSTCODE":"2660","DISTRICT":"HOBOKEN"},"geometry":{"type":"Point","coordinates":[4.355649004849993,51.178135182277785]}},{"type":"Feature","properties":{"OBJECTID":46896,"NAAM":"Internationale Apotheek","ID":"ap00765","STRAAT":"Appelmansstraat","HUISNR":"11","POSTCODE":"2018","DISTRICT":"ANTWERPEN"},"geometry":{"type":"Point","coordinates":[4.4176999569197575,51.21695967858082]}},{"type":"Feature","properties":{"OBJECTID":46897,"NAAM":"Multipharma 104","ID":"ap00766","STRAAT":"Baron Leroystraat","HUISNR":"2","POSTCODE":"2100","DISTRICT":"DEURNE"},"geometry":{"type":"Point","coordinates":[4.466411064059445,51.225768898755376]}},{"type":"Feature","properties":{"OBJECTID":46898,"NAAM":"Apotheek Bek","ID":"ap00768","STRAAT":"Belgielei","HUISNR":"66","POSTCODE":"2018","DISTRICT":"ANTWERPEN"},"geometry":{"type":"Point","coordinates":[4.419810449443436,51.20741888190567]}},{"type":"Feature","properties":{"OBJECTID":46899,"NAAM":"Kruispunt Apotheek","ID":"ap00769","STRAAT":"Belgiëlei","HUISNR":"108","POSTCODE":"2018","DISTRICT":"ANTWERPEN"},"geometry":{"type":"Point","coordinates":[4.4175515889360915,51.205752040059984]}},{"type":"Feature","properties":{"OBJECTID":46900,"NAAM":"Apotheek Godelaine","ID":"ap00770","STRAAT":"Berkenlaan","HUISNR":"85","POSTCODE":"2610","DISTRICT":"WILRIJK"},"geometry":{"type":"Point","coordinates":[4.39379781058767,51.18289125052474]}},{"type":"Feature","properties":{"OBJECTID":46901,"NAAM":"Apotheek Bisschoppenhof","ID":"ap00771","STRAAT":"Bisschoppenhoflaan","HUISNR":"226","POSTCODE":"2100","DISTRICT":"DEURNE"},"geometry":{"type":"Point","coordinates":[4.454052709194443,51.23167976328214]}},{"type":"Feature","properties":{"OBJECTID":46902,"NAAM":"Apotheek De Groof Philip","ID":"ap00772","STRAAT":"Bist","HUISNR":"43","POSTCODE":"2610","DISTRICT":"WILRIJK"},"geometry":{"type":"Point","coordinates":[4.393831382186942,51.16941729526333]}},{"type":"Feature","properties":{"OBJECTID":46903,"NAAM":"Regatta Pharma","ID":"ap00773","STRAAT":"Blancefloerlaan","HUISNR":"309","POSTCODE":"2050","DISTRICT":"ANTWERPEN"},"geometry":{"type":"Point","coordinates":[4.371247098708698,51.21981925616171]}},{"type":"Feature","properties":{"OBJECTID":46904,"NAAM":"Apotheek Ramsdam","ID":"ap00774","STRAAT":"Blancefloerlaan","HUISNR":"65","POSTCODE":"2050","DISTRICT":"ANTWERPEN"},"geometry":{"type":"Point","coordinates":[4.380482437748226,51.22002669348451]}},{"type":"Feature","properties":{"OBJECTID":46905,"NAAM":"Apotheek Van Eynde","ID":"ap00777","STRAAT":"Boshovestraat","HUISNR":"186","POSTCODE":"2100","DISTRICT":"DEURNE"},"geometry":{"type":"Point","coordinates":[4.473034929287449,51.22278237932152]}},{"type":"Feature","properties":{"OBJECTID":46906,"NAAM":"Apotheek Bellekens","ID":"ap00779","STRAAT":"Bredabaan","HUISNR":"277","POSTCODE":"2170","DISTRICT":"MERKSEM"},"geometry":{"type":"Point","coordinates":[4.4385551000719,51.24025705732629]}},{"type":"Feature","properties":{"OBJECTID":46907,"NAAM":"Multipharma 103","ID":"ap00780","STRAAT":"Bredabaan","HUISNR":"328","POSTCODE":"2170","DISTRICT":"MERKSEM"},"geometry":{"type":"Point","coordinates":[4.439704305823126,51.24211366440797]}},{"type":"Feature","properties":{"OBJECTID":46908,"NAAM":"Districtapotheek","ID":"ap00781","STRAAT":"Bredabaan","HUISNR":"372","POSTCODE":"2170","DISTRICT":"MERKSEM"},"geometry":{"type":"Point","coordinates":[4.4411221066054605,51.243119437066575]}},{"type":"Feature","properties":{"OBJECTID":46909,"NAAM":"Multipharma 97","ID":"ap00782","STRAAT":"Bredabaan","HUISNR":"521","POSTCODE":"2170","DISTRICT":"MERKSEM"},"geometry":{"type":"Point","coordinates":[4.448403144107755,51.24555071197357]}},{"type":"Feature","properties":{"OBJECTID":46910,"NAAM":"Apotheek Pirlot","ID":"ap00783","STRAAT":"Bredabaan","HUISNR":"720","POSTCODE":"2170","DISTRICT":"MERKSEM"},"geometry":{"type":"Point","coordinates":[4.453149089644322,51.248392236144625]}},{"type":"Feature","properties":{"OBJECTID":46911,"NAAM":"Apotheek De Kroon","ID":"ap00784","STRAAT":"Brederodestraat","HUISNR":"127","POSTCODE":"2018","DISTRICT":"ANTWERPEN"},"geometry":{"type":"Point","coordinates":[4.3934457517380965,51.20273168958131]}},{"type":"Feature","properties":{"OBJECTID":46912,"NAAM":"Apotheek Muylaert","ID":"ap00785","STRAAT":"Brederodestraat","HUISNR":"61","POSTCODE":"2018","DISTRICT":"ANTWERPEN"},"geometry":{"type":"Point","coordinates":[4.395827167835651,51.20518331273796]}},{"type":"Feature","properties":{"OBJECTID":46913,"NAAM":"Pharma Thierie","ID":"ap00786","STRAAT":"Bresstraat","HUISNR":"18","POSTCODE":"2018","DISTRICT":"ANTWERPEN"},"geometry":{"type":"Point","coordinates":[4.397847450585601,51.206606048556395]}},{"type":"Feature","properties":{"OBJECTID":46914,"NAAM":"Apotheek Masui","ID":"ap00787","STRAAT":"Camille Huysmanslaan","HUISNR":"95","POSTCODE":"2020","DISTRICT":"ANTWERPEN"},"geometry":{"type":"Point","coordinates":[4.390694621029964,51.190502998172384]}},{"type":"Feature","properties":{"OBJECTID":46915,"NAAM":"Apotheek Thaey","ID":"ap00790","STRAAT":"Carnotstraat","HUISNR":"26","POSTCODE":"2060","DISTRICT":"ANTWERPEN"},"geometry":{"type":"Point","coordinates":[4.423309304161602,51.218558139335045]}},{"type":"Feature","properties":{"OBJECTID":46916,"NAAM":"Apotheek Rivierenhof","ID":"ap00792","STRAAT":"Collegelaan","HUISNR":"106","POSTCODE":"2100","DISTRICT":"DEURNE"},"geometry":{"type":"Point","coordinates":[4.4575640042865095,51.2133599067841]}},{"type":"Feature","properties":{"OBJECTID":46917,"NAAM":"Apotheek Albisa","ID":"ap00795","STRAAT":"Cruyslei","HUISNR":"25","POSTCODE":"2140","DISTRICT":"BORGERHOUT"},"geometry":{"type":"Point","coordinates":[4.456487756797534,51.19898567606953]}},{"type":"Feature","properties":{"OBJECTID":46918,"NAAM":"Apotheek Pharmalux","ID":"ap00796","STRAAT":"Dageraadplaats","HUISNR":"25","POSTCODE":"2018","DISTRICT":"ANTWERPEN"},"geometry":{"type":"Point","coordinates":[4.429459347682476,51.20726356442548]}},{"type":"Feature","properties":{"OBJECTID":46919,"NAAM":"Apotheek Hooft","ID":"ap00797","STRAAT":"Dambruggestraat","HUISNR":"209","POSTCODE":"2060","DISTRICT":"ANTWERPEN"},"geometry":{"type":"Point","coordinates":[4.421811658499329,51.22550334727636]}},{"type":"Feature","properties":{"OBJECTID":46920,"NAAM":"Apotheek 3 Torekens","ID":"ap00799","STRAAT":"De Berlaimontstraat","HUISNR":"49","POSTCODE":"2100","DISTRICT":"DEURNE"},"geometry":{"type":"Point","coordinates":[4.457350854308442,51.228610837689374]}},{"type":"Feature","properties":{"OBJECTID":46921,"NAAM":"Apotheek Tarnaud","ID":"ap00802","STRAAT":"De Gryspeerstraat","HUISNR":"19","POSTCODE":"2100","DISTRICT":"DEURNE"},"geometry":{"type":"Point","coordinates":[4.453085114164592,51.22669831408952]}},{"type":"Feature","properties":{"OBJECTID":46922,"NAAM":"Apotheek Grime","ID":"ap00804","STRAAT":"De Vlasschaardstraat","HUISNR":"3","POSTCODE":"2170","DISTRICT":"MERKSEM"},"geometry":{"type":"Point","coordinates":[4.435605153146448,51.25020120651237]}},{"type":"Feature","properties":{"OBJECTID":46923,"NAAM":"Apotheek Groenenhoek","ID":"ap00805","STRAAT":"Dianalaan","HUISNR":"174","POSTCODE":"2600","DISTRICT":"BERCHEM"},"geometry":{"type":"Point","coordinates":[4.444616991371467,51.19561590862731]}},{"type":"Feature","properties":{"OBJECTID":46924,"NAAM":"Apotheek Willemsplein","ID":"ap00806","STRAAT":"Dichtersstraat","HUISNR":"1","POSTCODE":"2610","DISTRICT":"WILRIJK"},"geometry":{"type":"Point","coordinates":[4.375956861856137,51.18054480724225]}},{"type":"Feature","properties":{"OBJECTID":46925,"NAAM":"Apotheek Amicus-C","ID":"ap00809","STRAAT":"Diksmuidelaan","HUISNR":"80","POSTCODE":"2600","DISTRICT":"BERCHEM"},"geometry":{"type":"Point","coordinates":[4.4417453297317655,51.19810149680358]}},{"type":"Feature","properties":{"OBJECTID":46926,"NAAM":"Apotheek Van den Berghe","ID":"ap00810","STRAAT":"Dokter Van de Perrelei","HUISNR":"114","POSTCODE":"2140","DISTRICT":"BORGERHOUT"},"geometry":{"type":"Point","coordinates":[4.449303088225557,51.20679453244343]}},{"type":"Feature","properties":{"OBJECTID":46927,"NAAM":"Apotheek Leuridan","ID":"ap00813","STRAAT":"Draakstraat","HUISNR":"18","POSTCODE":"2018","DISTRICT":"ANTWERPEN"},"geometry":{"type":"Point","coordinates":[4.431006132488222,51.20629957938715]}},{"type":"Feature","properties":{"OBJECTID":46928,"NAAM":"Apotheek De Geest","ID":"ap00817","STRAAT":"Edenlaan","HUISNR":"20","POSTCODE":"2610","DISTRICT":"WILRIJK"},"geometry":{"type":"Point","coordinates":[4.389255740961941,51.153416189097214]}},{"type":"Feature","properties":{"OBJECTID":46929,"NAAM":"Apotheek Eksterlaar","ID":"ap00818","STRAAT":"Eksterlaar","HUISNR":"75","POSTCODE":"2100","DISTRICT":"DEURNE"},"geometry":{"type":"Point","coordinates":[4.468840900642443,51.199604571281576]}},{"type":"Feature","properties":{"OBJECTID":46930,"NAAM":"Apotheek Warlop","ID":"ap00820","STRAAT":"Ferdinand Verbieststraat","HUISNR":"6","POSTCODE":"2030","DISTRICT":"ANTWERPEN"},"geometry":{"type":"Point","coordinates":[4.411025057966436,51.27451787172515]}},{"type":"Feature","properties":{"OBJECTID":46931,"NAAM":"Apotheek Holvoet","ID":"ap00821","STRAAT":"Floralienlaan","HUISNR":"513","POSTCODE":"2610","DISTRICT":"WILRIJK"},"geometry":{"type":"Point","coordinates":[4.430186345639343,51.177790139774814]}},{"type":"Feature","properties":{"OBJECTID":46932,"NAAM":"Antverpia Berchem","ID":"ap00824","STRAAT":"Fruithoflaan","HUISNR":"10","POSTCODE":"2600","DISTRICT":"BERCHEM"},"geometry":{"type":"Point","coordinates":[4.434038601836729,51.18088686324251]}},{"type":"Feature","properties":{"OBJECTID":46933,"NAAM":"Apotheek Baute","ID":"ap00825","STRAAT":"Gallaitlaan","HUISNR":"4","POSTCODE":"2610","DISTRICT":"WILRIJK"},"geometry":{"type":"Point","coordinates":[4.390730337973668,51.166242647069396]}},{"type":"Feature","properties":{"OBJECTID":46934,"NAAM":"Apotheek Wauben","ID":"ap00826","STRAAT":"Gallifortlei","HUISNR":"147","POSTCODE":"2100","DISTRICT":"DEURNE"},"geometry":{"type":"Point","coordinates":[4.463650045178458,51.22330431530526]}},{"type":"Feature","properties":{"OBJECTID":46935,"NAAM":"APO+","ID":"ap00827","STRAAT":"Gallifortlei","HUISNR":"67","POSTCODE":"2100","DISTRICT":"DEURNE"},"geometry":{"type":"Point","coordinates":[4.462345578448492,51.22201928984321]}},{"type":"Feature","properties":{"OBJECTID":46936,"NAAM":"Apotheek Tijskens","ID":"ap00828","STRAAT":"Gasstraat","HUISNR":"105","POSTCODE":"2060","DISTRICT":"ANTWERPEN"},"geometry":{"type":"Point","coordinates":[4.426311296517877,51.223954806733694]}},{"type":"Feature","properties":{"OBJECTID":46937,"NAAM":"Apotheek 't Roosevelt","ID":"ap00829","STRAAT":"Gemeentestraat","HUISNR":"2","POSTCODE":"2060","DISTRICT":"ANTWERPEN"},"geometry":{"type":"Point","coordinates":[4.418603459848216,51.21917431753267]}},{"type":"Feature","properties":{"OBJECTID":46938,"NAAM":"Apotheek Europark","ID":"ap00831","STRAAT":"Georges Eekhoudlaan","HUISNR":"2","POSTCODE":"2050","DISTRICT":"ANTWERPEN"},"geometry":{"type":"Point","coordinates":[4.381125759064951,51.22314254629961]}},{"type":"Feature","properties":{"OBJECTID":46939,"NAAM":"Apotheek Van de Voorde","ID":"ap00833","STRAAT":"Gitschotellei","HUISNR":"127","POSTCODE":"2600","DISTRICT":"BERCHEM"},"geometry":{"type":"Point","coordinates":[4.442478565035453,51.20018789235529]}},{"type":"Feature","properties":{"OBJECTID":46940,"NAAM":"Apotheek Gitschotel","ID":"ap00834","STRAAT":"Gitschotellei","HUISNR":"186","POSTCODE":"2140","DISTRICT":"BORGERHOUT"},"geometry":{"type":"Point","coordinates":[4.444162914432093,51.200702684679165]}},{"type":"Feature","properties":{"OBJECTID":46941,"NAAM":"Multipharma 461","ID":"ap00835","STRAAT":"Gitschotellei","HUISNR":"247","POSTCODE":"2140","DISTRICT":"BORGERHOUT"},"geometry":{"type":"Point","coordinates":[4.448275945472324,51.200003852181105]}},{"type":"Feature","properties":{"OBJECTID":46942,"NAAM":"Apotheek Polderstad","ID":"ap00836","STRAAT":"Graspolderlaan","HUISNR":"24","POSTCODE":"2660","DISTRICT":"HOBOKEN"},"geometry":{"type":"Point","coordinates":[4.3423549885486805,51.18550310197791]}},{"type":"Feature","properties":{"OBJECTID":46943,"NAAM":"Apotheek De Meester","ID":"ap00837","STRAAT":"Groenendaallaan","HUISNR":"164","POSTCODE":"2170","DISTRICT":"MERKSEM"},"geometry":{"type":"Point","coordinates":[4.4299929638816815,51.24370856497536]}},{"type":"Feature","properties":{"OBJECTID":46944,"NAAM":"Europa apotheek","ID":"ap00839","STRAAT":"Groenplaats","HUISNR":"42","POSTCODE":"2000","DISTRICT":"ANTWERPEN"},"geometry":{"type":"Point","coordinates":[4.401327165975164,51.219876000403076]}},{"type":"Feature","properties":{"OBJECTID":46945,"NAAM":"Apotheek Van Reeth - Deprost","ID":"ap00843","STRAAT":"Grotesteenweg","HUISNR":"241","POSTCODE":"2600","DISTRICT":"BERCHEM"},"geometry":{"type":"Point","coordinates":[4.425473829824452,51.189015771557536]}},{"type":"Feature","properties":{"OBJECTID":46946,"NAAM":"Apotheek Degreef","ID":"ap00844","STRAAT":"Grotesteenweg","HUISNR":"393","POSTCODE":"2600","DISTRICT":"BERCHEM"},"geometry":{"type":"Point","coordinates":[4.42963696638589,51.18525937827644]}},{"type":"Feature","properties":{"OBJECTID":46947,"NAAM":"Apotheek Vandenabeele","ID":"ap00845","STRAAT":"Grotesteenweg","HUISNR":"9","POSTCODE":"2600","DISTRICT":"BERCHEM"},"geometry":{"type":"Point","coordinates":[4.415462651945282,51.1986102648696]}},{"type":"Feature","properties":{"OBJECTID":46948,"NAAM":"M de Porre","ID":"ap00846","STRAAT":"Guido Gezellestraat","HUISNR":"7","POSTCODE":"2140","DISTRICT":"BORGERHOUT"},"geometry":{"type":"Point","coordinates":[4.435980537769533,51.209384530369135]}},{"type":"Feature","properties":{"OBJECTID":46949,"NAAM":"Apotheek De Voogt","ID":"ap00849","STRAAT":"Heidestraat","HUISNR":"217","POSTCODE":"2660","DISTRICT":"HOBOKEN"},"geometry":{"type":"Point","coordinates":[4.3624479169949515,51.17443273040428]}},{"type":"Feature","properties":{"OBJECTID":46950,"NAAM":"Apotheek Bogaert","ID":"ap00850","STRAAT":"Heistraat","HUISNR":"40","POSTCODE":"2610","DISTRICT":"WILRIJK"},"geometry":{"type":"Point","coordinates":[4.394394898606724,51.17198822364791]}},{"type":"Feature","properties":{"OBJECTID":46951,"NAAM":"Multipharma 94","ID":"ap00851","STRAAT":"Heistraat","HUISNR":"8","POSTCODE":"2610","DISTRICT":"WILRIJK"},"geometry":{"type":"Point","coordinates":[4.395177287531847,51.171057554737466]}},{"type":"Feature","properties":{"OBJECTID":46952,"NAAM":"Apotheek Hostens","ID":"ap00853","STRAAT":"Hendriklei","HUISNR":"11","POSTCODE":"2660","DISTRICT":"HOBOKEN"},"geometry":{"type":"Point","coordinates":[4.374555577746535,51.18672829386366]}},{"type":"Feature","properties":{"OBJECTID":46953,"NAAM":"De Lindeboom Apotheek Deurne","ID":"ap00854","STRAAT":"Herentalsebaan","HUISNR":"106","POSTCODE":"2100","DISTRICT":"DEURNE"},"geometry":{"type":"Point","coordinates":[4.456795091072031,51.20905390565021]}},{"type":"Feature","properties":{"OBJECTID":46954,"NAAM":"Multipharma 91","ID":"ap00856","STRAAT":"Herentalsebaan","HUISNR":"363","POSTCODE":"2100","DISTRICT":"DEURNE"},"geometry":{"type":"Point","coordinates":[4.46767283925633,51.206648682313975]}},{"type":"Feature","properties":{"OBJECTID":46955,"NAAM":"Apotheek Strobbe","ID":"ap00858","STRAAT":"Hoogstraat","HUISNR":"46","POSTCODE":"2000","DISTRICT":"ANTWERPEN"},"geometry":{"type":"Point","coordinates":[4.397720710014527,51.2193733531755]}},{"type":"Feature","properties":{"OBJECTID":46956,"NAAM":"Apotheek Van Herzele","ID":"ap00859","STRAAT":"Hugo Verrieststraat","HUISNR":"11","POSTCODE":"2600","DISTRICT":"BERCHEM"},"geometry":{"type":"Point","coordinates":[4.424371165419406,51.18809472017092]}},{"type":"Feature","properties":{"OBJECTID":46957,"NAAM":"Apotheek Mann","ID":"ap00864","STRAAT":"Jan Van Rijswijcklaan","HUISNR":"82","POSTCODE":"2018","DISTRICT":"ANTWERPEN"},"geometry":{"type":"Point","coordinates":[4.4059745268483965,51.19709418209654]}},{"type":"Feature","properties":{"OBJECTID":46958,"NAAM":"Actipharma","ID":"ap00866","STRAAT":"Jules Moretuslei","HUISNR":"239","POSTCODE":"2610","DISTRICT":"WILRIJK"},"geometry":{"type":"Point","coordinates":[4.392601431189013,51.172630828669895]}},{"type":"Feature","properties":{"OBJECTID":46959,"NAAM":"Apotheek Isavo","ID":"ap00867","STRAAT":"Julius De Geyterstraat","HUISNR":"19","POSTCODE":"2020","DISTRICT":"ANTWERPEN"},"geometry":{"type":"Point","coordinates":[4.376000077222068,51.18621464641924]}},{"type":"Feature","properties":{"OBJECTID":46960,"NAAM":"Apotheek Justitia","ID":"ap00869","STRAAT":"Justitiestraat","HUISNR":"81","POSTCODE":"2018","DISTRICT":"ANTWERPEN"},"geometry":{"type":"Point","coordinates":[4.403690687550757,51.20799892340009]}},{"type":"Feature","properties":{"OBJECTID":46961,"NAAM":"City Pharma","ID":"ap00870","STRAAT":"Kammenstraat","HUISNR":"61","POSTCODE":"2000","DISTRICT":"ANTWERPEN"},"geometry":{"type":"Point","coordinates":[4.401357537169942,51.21670797136434]}},{"type":"Feature","properties":{"OBJECTID":46962,"NAAM":"Apotheek D. Verhaert","ID":"ap00872","STRAAT":"Kapelsesteenweg","HUISNR":"81","POSTCODE":"2180","DISTRICT":"EKEREN"},"geometry":{"type":"Point","coordinates":[4.457914571077928,51.27193325328713]}},{"type":"Feature","properties":{"OBJECTID":46963,"NAAM":"Apotheek Sollie","ID":"ap00874","STRAAT":"Kasteelpleinstraat","HUISNR":"24","POSTCODE":"2000","DISTRICT":"ANTWERPEN"},"geometry":{"type":"Point","coordinates":[4.401335607000719,51.210482748476736]}},{"type":"Feature","properties":{"OBJECTID":46964,"NAAM":"Apotheek Van Briel","ID":"ap00875","STRAAT":"Keizerstraat","HUISNR":"73","POSTCODE":"2000","DISTRICT":"ANTWERPEN"},"geometry":{"type":"Point","coordinates":[4.41028336489824,51.22139803656095]}},{"type":"Feature","properties":{"OBJECTID":46965,"NAAM":"Multipharma 90","ID":"ap00878","STRAAT":"Kioskplaats","HUISNR":"45","POSTCODE":"2660","DISTRICT":"HOBOKEN"},"geometry":{"type":"Point","coordinates":[4.350163997971406,51.17521461004062]}},{"type":"Feature","properties":{"OBJECTID":46966,"NAAM":"Apotheek Van Ghyseghem","ID":"ap00880","STRAAT":"Kloosterstraat","HUISNR":"166","POSTCODE":"2000","DISTRICT":"ANTWERPEN"},"geometry":{"type":"Point","coordinates":[4.393695457056681,51.21241872386529]}},{"type":"Feature","properties":{"OBJECTID":46967,"NAAM":"Apotheek Koxplein","ID":"ap00885","STRAAT":"Koxplein","HUISNR":"1","POSTCODE":"2140","DISTRICT":"BORGERHOUT"},"geometry":{"type":"Point","coordinates":[4.433304467613232,51.211560790136865]}},{"type":"Feature","properties":{"OBJECTID":46968,"NAAM":"Apotheek Kroonplein","ID":"ap00886","STRAAT":"Kroonplein","HUISNR":"47","POSTCODE":"2170","DISTRICT":"MERKSEM"},"geometry":{"type":"Point","coordinates":[4.449354307549737,51.251422442239566]}},{"type":"Feature","properties":{"OBJECTID":46969,"NAAM":"Apotheek Van den Dwey","ID":"ap00887","STRAAT":"Laaglandlaan","HUISNR":"164","POSTCODE":"2170","DISTRICT":"MERKSEM"},"geometry":{"type":"Point","coordinates":[4.446658626232469,51.256206280601916]}},{"type":"Feature","properties":{"OBJECTID":46970,"NAAM":"Apotheek Engels-Frencken","ID":"ap00888","STRAAT":"Laarstraat","HUISNR":"23","POSTCODE":"2610","DISTRICT":"WILRIJK"},"geometry":{"type":"Point","coordinates":[4.394539212290869,51.17477779001054]}},{"type":"Feature","properties":{"OBJECTID":46971,"NAAM":"Apotheek De Raeymaecker","ID":"ap00889","STRAAT":"Lageweg","HUISNR":"116","POSTCODE":"2660","DISTRICT":"HOBOKEN"},"geometry":{"type":"Point","coordinates":[4.358283911467244,51.183298225817076]}},{"type":"Feature","properties":{"OBJECTID":46972,"NAAM":"Apotheek Bronkhorst","ID":"ap00892","STRAAT":"Lambrechtshoekenlaan","HUISNR":"258","POSTCODE":"2170","DISTRICT":"MERKSEM"},"geometry":{"type":"Point","coordinates":[4.435137166320804,51.25218084252542]}},{"type":"Feature","properties":{"OBJECTID":46973,"NAAM":"Apotheek Rotti","ID":"ap00893","STRAAT":"Lamorinierestraat","HUISNR":"187","POSTCODE":"2018","DISTRICT":"ANTWERPEN"},"geometry":{"type":"Point","coordinates":[4.419818611726935,51.20219831594531]}},{"type":"Feature","properties":{"OBJECTID":46974,"NAAM":"Apotheek Pieters","ID":"ap00895","STRAAT":"Lange Leemstraat","HUISNR":"124","POSTCODE":"2018","DISTRICT":"ANTWERPEN"},"geometry":{"type":"Point","coordinates":[4.413832269712401,51.20723187724476]}},{"type":"Feature","properties":{"OBJECTID":46975,"NAAM":"Apotheek Maus","ID":"ap00896","STRAAT":"Lange Leemstraat","HUISNR":"74","POSTCODE":"2018","DISTRICT":"ANTWERPEN"},"geometry":{"type":"Point","coordinates":[4.411861637166227,51.20841957624572]}},{"type":"Feature","properties":{"OBJECTID":46976,"NAAM":"Apotheek Bouakka","ID":"ap00901","STRAAT":"Lange Van Bloerstraat","HUISNR":"88","POSTCODE":"2060","DISTRICT":"ANTWERPEN"},"geometry":{"type":"Point","coordinates":[4.43393963837068,51.22054338594549]}},{"type":"Feature","properties":{"OBJECTID":46977,"NAAM":"C van Hoof","ID":"ap00902","STRAAT":"Langstraat","HUISNR":"96","POSTCODE":"2140","DISTRICT":"BORGERHOUT"},"geometry":{"type":"Point","coordinates":[4.433591165184978,51.212431388426765]}},{"type":"Feature","properties":{"OBJECTID":46978,"NAAM":"Apotheek Verdonck","ID":"ap00903","STRAAT":"Lappersbrug","HUISNR":"21","POSTCODE":"2600","DISTRICT":"BERCHEM"},"geometry":{"type":"Point","coordinates":[4.431067515633767,51.18607979019089]}},{"type":"Feature","properties":{"OBJECTID":46979,"NAAM":"Apotheek Samsom","ID":"ap00904","STRAAT":"Leon Stampelaan","HUISNR":"1","POSTCODE":"2100","DISTRICT":"DEURNE"},"geometry":{"type":"Point","coordinates":[4.4652147467289405,51.19472307728273]}},{"type":"Feature","properties":{"OBJECTID":46980,"NAAM":"Apotheek Smets","ID":"ap00906","STRAAT":"Letterkundestraat","HUISNR":"2","POSTCODE":"2610","DISTRICT":"WILRIJK"},"geometry":{"type":"Point","coordinates":[4.382580265419637,51.181520411638324]}},{"type":"Feature","properties":{"OBJECTID":46981,"NAAM":"Apotheek Riet Maes","ID":"ap00907","STRAAT":"Lode Zielenslaan","HUISNR":"2","POSTCODE":"2050","DISTRICT":"ANTWERPEN"},"geometry":{"type":"Point","coordinates":[4.385553260352719,51.221823849640224]}},{"type":"Feature","properties":{"OBJECTID":46982,"NAAM":"Apotheek Gyselen","ID":"ap00908","STRAAT":"Lodewijk Van Berckenlaan","HUISNR":"184","POSTCODE":"2140","DISTRICT":"BORGERHOUT"},"geometry":{"type":"Point","coordinates":[4.447982918349944,51.1977645963105]}},{"type":"Feature","properties":{"OBJECTID":46983,"NAAM":"Zwitserse Apotheek","ID":"ap00909","STRAAT":"Luitenant Lippenslaan","HUISNR":"1","POSTCODE":"2140","DISTRICT":"BORGERHOUT"},"geometry":{"type":"Point","coordinates":[4.452274834081207,51.21004664734742]}},{"type":"Feature","properties":{"OBJECTID":46984,"NAAM":"Apotheek Jasmijn","ID":"ap00910","STRAAT":"Luitenant Naeyaertplein","HUISNR":"4","POSTCODE":"2140","DISTRICT":"BORGERHOUT"},"geometry":{"type":"Point","coordinates":[4.43975248040794,51.210292662666774]}},{"type":"Feature","properties":{"OBJECTID":46985,"NAAM":"De Lindeboom Apotheek","ID":"ap00913","STRAAT":"Markt","HUISNR":"16","POSTCODE":"2180","DISTRICT":"EKEREN"},"geometry":{"type":"Point","coordinates":[4.417892241861589,51.27748164306348]}},{"type":"Feature","properties":{"OBJECTID":46986,"NAAM":"Apotheek Joris","ID":"ap00915","STRAAT":"Mechelseplein","HUISNR":"20","POSTCODE":"2000","DISTRICT":"ANTWERPEN"},"geometry":{"type":"Point","coordinates":[4.404862750652136,51.21279275512729]}},{"type":"Feature","properties":{"OBJECTID":46987,"NAAM":"Bankapotheek","ID":"ap00916","STRAAT":"Mechelsesteenweg","HUISNR":"12","POSTCODE":"2000","DISTRICT":"ANTWERPEN"},"geometry":{"type":"Point","coordinates":[4.407234169035738,51.211627136343104]}},{"type":"Feature","properties":{"OBJECTID":46988,"NAAM":"Eeuwfeestapotheek","ID":"ap00917","STRAAT":"Mechelsesteenweg","HUISNR":"181","POSTCODE":"2018","DISTRICT":"ANTWERPEN"},"geometry":{"type":"Point","coordinates":[4.411613230186793,51.20401803566959]}},{"type":"Feature","properties":{"OBJECTID":46989,"NAAM":"Apotheek Marc Thoné","ID":"ap00919","STRAAT":"Menegemlei","HUISNR":"2","POSTCODE":"2100","DISTRICT":"DEURNE"},"geometry":{"type":"Point","coordinates":[4.464505212989758,51.20079815136805]}},{"type":"Feature","properties":{"OBJECTID":46990,"NAAM":"Apotheek Ampe","ID":"ap00921","STRAAT":"Mercatorstraat","HUISNR":"36","POSTCODE":"2018","DISTRICT":"ANTWERPEN"},"geometry":{"type":"Point","coordinates":[4.422999012456218,51.20885607491837]}},{"type":"Feature","properties":{"OBJECTID":46991,"NAAM":"Apotheek Suykerbuyk","ID":"ap00923","STRAAT":"Monnikenhofstraat","HUISNR":"105","POSTCODE":"2040","DISTRICT":"BERENDRECHT-ZANDVLIET-LILLO"},"geometry":{"type":"Point","coordinates":[4.320860933331926,51.34572975831258]}},{"type":"Feature","properties":{"OBJECTID":46992,"NAAM":"Apotheek Buyck","ID":"ap00925","STRAAT":"Muizenstraat","HUISNR":"14","POSTCODE":"2060","DISTRICT":"ANTWERPEN"},"geometry":{"type":"Point","coordinates":[4.421475769923089,51.22226368088901]}},{"type":"Feature","properties":{"OBJECTID":46993,"NAAM":"De Lindeboom Apotheek","ID":"ap00927","STRAAT":"Nationalestraat","HUISNR":"119","POSTCODE":"2000","DISTRICT":"ANTWERPEN"},"geometry":{"type":"Point","coordinates":[4.398260711863389,51.21376413262939]}},{"type":"Feature","properties":{"OBJECTID":46994,"NAAM":"Antverpia Antwerpen","ID":"ap00928","STRAAT":"Nationalestraat","HUISNR":"145","POSTCODE":"2000","DISTRICT":"ANTWERPEN"},"geometry":{"type":"Point","coordinates":[4.397880438693623,51.21309899311368]}},{"type":"Feature","properties":{"OBJECTID":46995,"NAAM":"Apotheek Lescrinier","ID":"ap00929","STRAAT":"Nationalestraat","HUISNR":"70","POSTCODE":"2000","DISTRICT":"ANTWERPEN"},"geometry":{"type":"Point","coordinates":[4.39860694934898,51.215602532805725]}},{"type":"Feature","properties":{"OBJECTID":46996,"NAAM":"Apotheek Mast","ID":"ap00932","STRAAT":"Offerandestraat","HUISNR":"112","POSTCODE":"2060","DISTRICT":"ANTWERPEN"},"geometry":{"type":"Point","coordinates":[4.427426101460349,51.2211851777189]}},{"type":"Feature","properties":{"OBJECTID":46997,"NAAM":"Apotheek De Gendt","ID":"ap00934","STRAAT":"Oogststraat","HUISNR":"9","POSTCODE":"2600","DISTRICT":"BERCHEM"},"geometry":{"type":"Point","coordinates":[4.438097791561045,51.18177976848088]}},{"type":"Feature","properties":{"OBJECTID":46998,"NAAM":"Farmafleur","ID":"ap00936","STRAAT":"Oosterlinckhoflaan","HUISNR":"48","POSTCODE":"2180","DISTRICT":"EKEREN"},"geometry":{"type":"Point","coordinates":[4.424080297871974,51.28158529249134]}},{"type":"Feature","properties":{"OBJECTID":46999,"NAAM":"Apotheek Somers Kristel","ID":"ap00937","STRAAT":"Oudebaan","HUISNR":"5","POSTCODE":"2180","DISTRICT":"EKEREN"},"geometry":{"type":"Point","coordinates":[4.45283847293579,51.278842714043606]}},{"type":"Feature","properties":{"OBJECTID":47000,"NAAM":"Apotheek P. Bauwens","ID":"ap00940","STRAAT":"Pastoor Bauwenslaan","HUISNR":"59","POSTCODE":"2610","DISTRICT":"WILRIJK"},"geometry":{"type":"Point","coordinates":[4.378262270248557,51.17865381344581]}},{"type":"Feature","properties":{"OBJECTID":47001,"NAAM":"De Apothekers Centraal Station","ID":"ap00942","STRAAT":"Pelikaanstraat","HUISNR":"3","POSTCODE":"2018","DISTRICT":"ANTWERPEN"},"geometry":{"type":"Point","coordinates":[4.421156950734775,51.215121824607515]}},{"type":"Feature","properties":{"OBJECTID":47002,"NAAM":"Apotheek Plantijn","ID":"ap00944","STRAAT":"Plantin en Moretuslei","HUISNR":"92","POSTCODE":"2018","DISTRICT":"ANTWERPEN"},"geometry":{"type":"Point","coordinates":[4.426265931419389,51.21022168915996]}},{"type":"Feature","properties":{"OBJECTID":47003,"NAAM":"Apotheek Oosterveld","ID":"ap00948","STRAAT":"Prins Boudewijnlaan","HUISNR":"136","POSTCODE":"2610","DISTRICT":"WILRIJK"},"geometry":{"type":"Point","coordinates":[4.424584100295581,51.17555058356986]}},{"type":"Feature","properties":{"OBJECTID":47004,"NAAM":"Apotheek Slaets","ID":"ap00949","STRAAT":"Prins Boudewijnlaan","HUISNR":"340","POSTCODE":"2610","DISTRICT":"WILRIJK"},"geometry":{"type":"Point","coordinates":[4.4258246223111675,51.170748488440395]}},{"type":"Feature","properties":{"OBJECTID":47005,"NAAM":"Apotheek De Meyer","ID":"ap00950","STRAAT":"Prinshoeveweg","HUISNR":"90","POSTCODE":"2180","DISTRICT":"EKEREN"},"geometry":{"type":"Point","coordinates":[4.447618139459322,51.27953190185649]}},{"type":"Feature","properties":{"OBJECTID":47006,"NAAM":"Apotheek Clessens","ID":"ap00953","STRAAT":"Ringlaan","HUISNR":"21","POSTCODE":"2170","DISTRICT":"MERKSEM"},"geometry":{"type":"Point","coordinates":[4.457664801570318,51.25447903881368]}},{"type":"Feature","properties":{"OBJECTID":47007,"NAAM":"Apotheek Holsbeek","ID":"ap00955","STRAAT":"Ruggeveldlaan","HUISNR":"588","POSTCODE":"2100","DISTRICT":"DEURNE"},"geometry":{"type":"Point","coordinates":[4.479689831300811,51.22277896780857]}},{"type":"Feature","properties":{"OBJECTID":47008,"NAAM":"Apotheek Cortvrindt","ID":"ap00956","STRAAT":"Rupelstraat","HUISNR":"2","POSTCODE":"2060","DISTRICT":"ANTWERPEN"},"geometry":{"type":"Point","coordinates":[4.42938452454732,51.231161639876156]}},{"type":"Feature","properties":{"OBJECTID":47009,"NAAM":"Apotheek Heyvaerts","ID":"ap00957","STRAAT":"Schotensesteenweg","HUISNR":"150","POSTCODE":"2100","DISTRICT":"DEURNE"},"geometry":{"type":"Point","coordinates":[4.481420651678602,51.22252218026373]}},{"type":"Feature","properties":{"OBJECTID":47010,"NAAM":"R & B Farma","ID":"ap00958","STRAAT":"Schotensesteenweg","HUISNR":"8","POSTCODE":"2100","DISTRICT":"DEURNE"},"geometry":{"type":"Point","coordinates":[4.475600038600478,51.21947043850544]}},{"type":"Feature","properties":{"OBJECTID":47011,"NAAM":"Apotheek Spysschaert","ID":"ap00961","STRAAT":"Sint-Bernardsesteenweg","HUISNR":"808","POSTCODE":"2660","DISTRICT":"HOBOKEN"},"geometry":{"type":"Point","coordinates":[4.368762288260164,51.17839127269057]}},{"type":"Feature","properties":{"OBJECTID":47012,"NAAM":"Apotheek Villé","ID":"ap00963","STRAAT":"Sint-Bernardsesteenweg","HUISNR":"354","POSTCODE":"2020","DISTRICT":"ANTWERPEN"},"geometry":{"type":"Point","coordinates":[4.376832277095907,51.189147284015704]}},{"type":"Feature","properties":{"OBJECTID":47013,"NAAM":"Apotheek Zwaantje","ID":"ap00964","STRAAT":"Sint-Bernardsesteenweg","HUISNR":"357","POSTCODE":"2660","DISTRICT":"HOBOKEN"},"geometry":{"type":"Point","coordinates":[4.372734296478699,51.18285823155967]}},{"type":"Feature","properties":{"OBJECTID":47014,"NAAM":"Apotheek Sint-Jacob","ID":"ap00967","STRAAT":"Sint-Jacobsmarkt","HUISNR":"98","POSTCODE":"2000","DISTRICT":"ANTWERPEN"},"geometry":{"type":"Point","coordinates":[4.414863870791098,51.21969888355823]}},{"type":"Feature","properties":{"OBJECTID":47015,"NAAM":"Apotheek De Kock","ID":"ap00969","STRAAT":"Sint-Lambertusstraat","HUISNR":"39","POSTCODE":"2600","DISTRICT":"BERCHEM"},"geometry":{"type":"Point","coordinates":[4.419874447857559,51.19864546246767]}},{"type":"Feature","properties":{"OBJECTID":47016,"NAAM":"Apotheek Sint-Paulus","ID":"ap00970","STRAAT":"Sint-Paulusstraat","HUISNR":"35","POSTCODE":"2000","DISTRICT":"ANTWERPEN"},"geometry":{"type":"Point","coordinates":[4.402706062140323,51.22425913812195]}},{"type":"Feature","properties":{"OBJECTID":47017,"NAAM":"Smeets Farma","ID":"ap00971","STRAAT":"Sint-Rochusstraat","HUISNR":"31","POSTCODE":"2100","DISTRICT":"DEURNE"},"geometry":{"type":"Point","coordinates":[4.465264769250469,51.20644791685158]}},{"type":"Feature","properties":{"OBJECTID":47018,"NAAM":"Apotheek Coppens-Dercon","ID":"ap00974","STRAAT":"Statiestraat","HUISNR":"165","POSTCODE":"2600","DISTRICT":"BERCHEM"},"geometry":{"type":"Point","coordinates":[4.429916445486121,51.1994181146292]}},{"type":"Feature","properties":{"OBJECTID":47019,"NAAM":"Multipharma 93","ID":"ap00975","STRAAT":"Statiestraat","HUISNR":"51","POSTCODE":"2600","DISTRICT":"BERCHEM"},"geometry":{"type":"Point","coordinates":[4.425459565183821,51.19784564060252]}},{"type":"Feature","properties":{"OBJECTID":47020,"NAAM":"Apotheek Stenenbrug","ID":"ap00976","STRAAT":"Stenenbrug","HUISNR":"150","POSTCODE":"2140","DISTRICT":"BORGERHOUT"},"geometry":{"type":"Point","coordinates":[4.451403464831149,51.210816114420886]}},{"type":"Feature","properties":{"OBJECTID":47021,"NAAM":"Apotheek Jans","ID":"ap00978","STRAAT":"Te Couwelaarlei","HUISNR":"134","POSTCODE":"2100","DISTRICT":"DEURNE"},"geometry":{"type":"Point","coordinates":[4.458513996755223,51.222550892876704]}},{"type":"Feature","properties":{"OBJECTID":47022,"NAAM":"Apotheek Nomes-Liekens","ID":"ap00979","STRAAT":"Ten Eekhovelei","HUISNR":"329","POSTCODE":"2100","DISTRICT":"DEURNE"},"geometry":{"type":"Point","coordinates":[4.44572218379438,51.22894076493766]}},{"type":"Feature","properties":{"OBJECTID":47023,"NAAM":"Apotheek Broeckx","ID":"ap00980","STRAAT":"Teniersplaats","HUISNR":"2","POSTCODE":"2000","DISTRICT":"ANTWERPEN"},"geometry":{"type":"Point","coordinates":[4.4144067869732915,51.21792392026527]}},{"type":"Feature","properties":{"OBJECTID":47024,"NAAM":"Apotheek Verzele","ID":"ap00981","STRAAT":"Ter Heydelaan","HUISNR":"1","POSTCODE":"2100","DISTRICT":"DEURNE"},"geometry":{"type":"Point","coordinates":[4.456744330568085,51.22471297684877]}},{"type":"Feature","properties":{"OBJECTID":47025,"NAAM":"Pharma Danckaert","ID":"ap00982","STRAAT":"Ter Heydelaan","HUISNR":"173","POSTCODE":"2100","DISTRICT":"DEURNE"},"geometry":{"type":"Point","coordinates":[4.463642589944772,51.227261663324]}},{"type":"Feature","properties":{"OBJECTID":47026,"NAAM":"Apotheek W.A. Farma","ID":"ap00983","STRAAT":"Ter Rivierenlaan","HUISNR":"207","POSTCODE":"2100","DISTRICT":"DEURNE"},"geometry":{"type":"Point","coordinates":[4.468895358048117,51.22671729028435]}},{"type":"Feature","properties":{"OBJECTID":47027,"NAAM":"Apotheek Van Butsele","ID":"ap00984","STRAAT":"Thibautstraat","HUISNR":"139","POSTCODE":"2140","DISTRICT":"BORGERHOUT"},"geometry":{"type":"Point","coordinates":[4.452638594623269,51.2039517664415]}},{"type":"Feature","properties":{"OBJECTID":47028,"NAAM":"Apotheek Ann Janssens","ID":"ap00985","STRAAT":"Trompetvogelstraat","HUISNR":"59","POSTCODE":"2170","DISTRICT":"MERKSEM"},"geometry":{"type":"Point","coordinates":[4.436526349215335,51.25753000996537]}},{"type":"Feature","properties":{"OBJECTID":47029,"NAAM":"Apotheek Welzijn","ID":"ap00986","STRAAT":"Turckstraat","HUISNR":"39","POSTCODE":"2140","DISTRICT":"BORGERHOUT"},"geometry":{"type":"Point","coordinates":[4.439684467771522,51.22158413319182]}},{"type":"Feature","properties":{"OBJECTID":47030,"NAAM":"Apotheek Cools","ID":"ap00987","STRAAT":"Turnhoutsebaan","HUISNR":"341","POSTCODE":"2140","DISTRICT":"BORGERHOUT"},"geometry":{"type":"Point","coordinates":[4.441861672365318,51.2143072975889]}},{"type":"Feature","properties":{"OBJECTID":47031,"NAAM":"Apotheek Commuphar","ID":"ap00989","STRAAT":"Turnhoutsebaan","HUISNR":"117","POSTCODE":"2100","DISTRICT":"DEURNE"},"geometry":{"type":"Point","coordinates":[4.461340193628629,51.22028957815935]}},{"type":"Feature","properties":{"OBJECTID":47032,"NAAM":"Apotheek De Roma","ID":"ap00991","STRAAT":"Turnhoutsebaan","HUISNR":"282","POSTCODE":"2140","DISTRICT":"BORGERHOUT"},"geometry":{"type":"Point","coordinates":[4.43994176910441,51.213676818805766]}},{"type":"Feature","properties":{"OBJECTID":47033,"NAAM":"Monbaliu-De Vel","ID":"ap00992","STRAAT":"Tweegezusterslaan","HUISNR":"99","POSTCODE":"2100","DISTRICT":"DEURNE"},"geometry":{"type":"Point","coordinates":[4.4768300628988165,51.22829018923514]}},{"type":"Feature","properties":{"OBJECTID":47034,"NAAM":"Apotheek Sportpaleis","ID":"ap00993","STRAAT":"Tweemontstraat","HUISNR":"431","POSTCODE":"2100","DISTRICT":"DEURNE"},"geometry":{"type":"Point","coordinates":[4.443226662243257,51.231146873036465]}},{"type":"Feature","properties":{"OBJECTID":47035,"NAAM":"Valaarapotheek","ID":"ap00994","STRAAT":"Valaardreef","HUISNR":"69","POSTCODE":"2610","DISTRICT":"WILRIJK"},"geometry":{"type":"Point","coordinates":[4.377480990727245,51.17629532945811]}},{"type":"Feature","properties":{"OBJECTID":47036,"NAAM":"Apotheek Orfus","ID":"ap00997","STRAAT":"Van Kerckhovenstraat","HUISNR":"74","POSTCODE":"2060","DISTRICT":"ANTWERPEN"},"geometry":{"type":"Point","coordinates":[4.425143833885449,51.225995748786964]}},{"type":"Feature","properties":{"OBJECTID":47037,"NAAM":"Oosterapotheek","ID":"ap00998","STRAAT":"Vandenpeereboomstraat","HUISNR":"100","POSTCODE":"2140","DISTRICT":"BORGERHOUT"},"geometry":{"type":"Point","coordinates":[4.436088520131328,51.209358711028344]}},{"type":"Feature","properties":{"OBJECTID":47038,"NAAM":"Apotheek Deckers","ID":"ap01002","STRAAT":"VIIde Olympiadelaan","HUISNR":"105","POSTCODE":"2020","DISTRICT":"ANTWERPEN"},"geometry":{"type":"Point","coordinates":[4.383985779452937,51.182929783353266]}},{"type":"Feature","properties":{"OBJECTID":47039,"NAAM":"Apotheek Feryn-Garre","ID":"ap01003","STRAAT":"Vijverlaan","HUISNR":"31","POSTCODE":"2610","DISTRICT":"WILRIJK"},"geometry":{"type":"Point","coordinates":[4.402808167371113,51.175859169200116]}},{"type":"Feature","properties":{"OBJECTID":47040,"NAAM":"Apotheek Van Reeth","ID":"ap01004","STRAAT":"Vlaamse Kunstlaan","HUISNR":"72","POSTCODE":"2020","DISTRICT":"ANTWERPEN"},"geometry":{"type":"Point","coordinates":[4.389612489083503,51.19031610054789]}},{"type":"Feature","properties":{"OBJECTID":47041,"NAAM":"Apotheek Proost","ID":"ap01005","STRAAT":"Volhardingstraat","HUISNR":"1","POSTCODE":"2020","DISTRICT":"ANTWERPEN"},"geometry":{"type":"Point","coordinates":[4.392025087465318,51.18775667170597]}},{"type":"Feature","properties":{"OBJECTID":47042,"NAAM":"Apotheek De Witte","ID":"ap01006","STRAAT":"Volkstraat","HUISNR":"26","POSTCODE":"2000","DISTRICT":"ANTWERPEN"},"geometry":{"type":"Point","coordinates":[4.3960522319852595,51.21147856430103]}},{"type":"Feature","properties":{"OBJECTID":47043,"NAAM":"Multipharma 102","ID":"ap01007","STRAAT":"Waterhoenlaan","HUISNR":"10","POSTCODE":"2050","DISTRICT":"ANTWERPEN"},"geometry":{"type":"Point","coordinates":[4.381638016758071,51.22075688553387]}},{"type":"Feature","properties":{"OBJECTID":47044,"NAAM":"Marktapotheek","ID":"ap01008","STRAAT":"Weggestraat","HUISNR":"5","POSTCODE":"2170","DISTRICT":"MERKSEM"},"geometry":{"type":"Point","coordinates":[4.447936146004334,51.24607421933492]}},{"type":"Feature","properties":{"OBJECTID":47045,"NAAM":"Apotheek De Arend","ID":"ap01010","STRAAT":"Zwarte Arendlaan","HUISNR":"14","POSTCODE":"2100","DISTRICT":"DEURNE"},"geometry":{"type":"Point","coordinates":[4.486033249096665,51.22146085954009]}},{"type":"Feature","properties":{"OBJECTID":47046,"NAAM":"Apotheek Drie Koningen","ID":"ap01012","STRAAT":"Grotesteenweg","HUISNR":"99","POSTCODE":"2600","DISTRICT":"BERCHEM"},"geometry":{"type":"Point","coordinates":[4.418194645395542,51.1957154627859]}},{"type":"Feature","properties":{"OBJECTID":47047,"NAAM":"Apotheek Van Puyvelde","ID":"ap01013","STRAAT":"Helmstraat","HUISNR":"162","POSTCODE":"2140","DISTRICT":"BORGERHOUT"},"geometry":{"type":"Point","coordinates":[4.437500152878252,51.218071645623276]}},{"type":"Feature","properties":{"OBJECTID":47048,"NAAM":"Apotheek Arena","ID":"ap01014","STRAAT":"Herentalsebaan","HUISNR":"265","POSTCODE":"2100","DISTRICT":"DEURNE"},"geometry":{"type":"Point","coordinates":[4.464196873748589,51.208153716886834]}},{"type":"Feature","properties":{"OBJECTID":47049,"NAAM":"Apotheek Dons","ID":"ap01015","STRAAT":"Monnikenhofstraat","HUISNR":"179","POSTCODE":"2040","DISTRICT":"BERENDRECHT-ZANDVLIET-LILLO"},"geometry":{"type":"Point","coordinates":[4.329644559752666,51.34789278096412]}},{"type":"Feature","properties":{"OBJECTID":47050,"NAAM":"Apotheek Audenaerde","ID":"ap01018","STRAAT":"Turnhoutsebaan","HUISNR":"375","POSTCODE":"2140","DISTRICT":"BORGERHOUT"},"geometry":{"type":"Point","coordinates":[4.443143783666418,51.21477900932772]}},{"type":"Feature","properties":{"OBJECTID":47051,"NAAM":"Apotheek Cons-envi","ID":"ap01019","STRAAT":"Turnhoutsebaan","HUISNR":"238","POSTCODE":"2140","DISTRICT":"BORGERHOUT"},"geometry":{"type":"Point","coordinates":[4.437945152468482,51.21401062597426]}},{"type":"Feature","properties":{"OBJECTID":47052,"NAAM":"Multipharma 145","ID":"ap01020","STRAAT":"Canadalaan","HUISNR":"218","POSTCODE":"2030","DISTRICT":"ANTWERPEN"},"geometry":{"type":"Point","coordinates":[4.421921404465463,51.254940436693154]}},{"type":"Feature","properties":{"OBJECTID":47053,"NAAM":"Apotheek Jan Palfijn","ID":"ap01021","STRAAT":"Lange Bremstraat","HUISNR":"70","POSTCODE":"2170","DISTRICT":"MERKSEM"},"geometry":{"type":"Point","coordinates":[4.451411777095616,51.259068221074514]}},{"type":"Feature","properties":{"OBJECTID":47054,"NAAM":"Apotheek Boomsesteenweg","ID":"ap01023","STRAAT":"Boomsesteenweg","HUISNR":"824","POSTCODE":"2610","DISTRICT":"WILRIJK"},"geometry":{"type":"Point","coordinates":[4.382564835822647,51.15662877805767]}},{"type":"Feature","properties":{"OBJECTID":47055,"NAAM":"Idealpharma","ID":"ap00848","STRAAT":"Heidestraat","HUISNR":"1","POSTCODE":"2660","DISTRICT":"HOBOKEN"},"geometry":{"type":"Point","coordinates":[4.3542817165101555,51.174015931781014]}},{"type":"Feature","properties":{"OBJECTID":47056,"NAAM":"Apotheek Van Hulst","ID":"ap01037","STRAAT":"Driehoekstraat","HUISNR":"91","POSTCODE":"2180","DISTRICT":"EKEREN"},"geometry":{"type":"Point","coordinates":[4.4210053833692715,51.28254917942078]}},{"type":"Feature","properties":{"OBJECTID":47057,"NAAM":"Coop-apotheken 42","ID":"ap01027","STRAAT":"Julius Vuylstekelaan","HUISNR":"5","POSTCODE":"2050","DISTRICT":"ANTWERPEN"},"geometry":{"type":"Point","coordinates":[4.378988768254832,51.2289990049187]}},{"type":"Feature","properties":{"OBJECTID":47058,"NAAM":"Pharma force","ID":"ap01028","STRAAT":"Kloosterstraat","HUISNR":"80","POSTCODE":"2180","DISTRICT":"EKEREN"},"geometry":{"type":"Point","coordinates":[4.417161381693282,51.281939463638906]}},{"type":"Feature","properties":{"OBJECTID":47059,"NAAM":"Apotheek Noorderlaan","ID":"ap01030","STRAAT":"Noorderlaan","HUISNR":"104","POSTCODE":"2030","DISTRICT":"ANTWERPEN"},"geometry":{"type":"Point","coordinates":[4.4211929288967005,51.25038460938096]}},{"type":"Feature","properties":{"OBJECTID":47060,"NAAM":"Apotheek Schijnpoort","ID":"ap01032","STRAAT":"Pothoekstraat","HUISNR":"130","POSTCODE":"2060","DISTRICT":"ANTWERPEN"},"geometry":{"type":"Point","coordinates":[4.436877499891038,51.22504067341454]}},{"type":"Feature","properties":{"OBJECTID":47061,"NAAM":"Apotheek Anfarma","ID":"ap01033","STRAAT":"Schulstraat","HUISNR":"1","POSTCODE":"2018","DISTRICT":"ANTWERPEN"},"geometry":{"type":"Point","coordinates":[4.407238975175926,51.20220807042335]}},{"type":"Feature","properties":{"OBJECTID":47062,"NAAM":"Apotheek de Molen","ID":"ap01036","STRAAT":"Kapelsesteenweg","HUISNR":"531","POSTCODE":"2180","DISTRICT":"EKEREN"},"geometry":{"type":"Point","coordinates":[4.444800920306361,51.29060889931597]}},{"type":"Feature","properties":{"OBJECTID":47063,"NAAM":"Apotheek Krols","ID":"ap01031","STRAAT":"Paardenmarkt","HUISNR":"38","POSTCODE":"2000","DISTRICT":"ANTWERPEN"},"geometry":{"type":"Point","coordinates":[4.4097183051490525,51.224922828728886]}},{"type":"Feature","properties":{"OBJECTID":47064,"NAAM":"Apotheek Farma 2000","ID":"ap01034","STRAAT":"Statiestraat","HUISNR":"71","POSTCODE":"2600","DISTRICT":"BERCHEM"},"geometry":{"type":"Point","coordinates":[4.426377814985803,51.19816260083725]}},{"type":"Feature","properties":{"OBJECTID":47065,"NAAM":"Apotheek De-Wilde-Zee","ID":"ap01039","STRAAT":"Huidevettersstraat","HUISNR":"38","POSTCODE":"2000","DISTRICT":"ANTWERPEN"},"geometry":{"type":"Point","coordinates":[4.405209435651215,51.216905246295]}},{"type":"Feature","properties":{"OBJECTID":47066,"NAAM":"Multipharma 88","ID":"ap01042","STRAAT":"Offerandestraat","HUISNR":"1","POSTCODE":"2060","DISTRICT":"ANTWERPEN"},"geometry":{"type":"Point","coordinates":[4.423574374875623,51.21963938920069]}},{"type":"Feature","properties":{"OBJECTID":47067,"NAAM":"Apotheek Anselmo","ID":"ap01044","STRAAT":"Anselmostraat","HUISNR":"28","POSTCODE":"2018","DISTRICT":"ANTWERPEN"},"geometry":{"type":"Point","coordinates":[4.4031883109185825,51.207450904271916]}},{"type":"Feature","properties":{"OBJECTID":47068,"NAAM":"Apotheek Wymeersch & De Heyn","ID":"ap01045","STRAAT":"Boomsesteenweg","HUISNR":"406","POSTCODE":"2020","DISTRICT":"ANTWERPEN"},"geometry":{"type":"Point","coordinates":[4.3883774113075065,51.18562758824585]}},{"type":"Feature","properties":{"OBJECTID":47069,"NAAM":"CoopApotheek De Coninckplein","ID":"ap01046","STRAAT":"De Conincplein","HUISNR":"9","POSTCODE":"2060","DISTRICT":"ANTWERPEN"},"geometry":{"type":"Point","coordinates":[4.4201370741225,51.22123619105212]}},{"type":"Feature","properties":{"OBJECTID":47070,"NAAM":"Apotheek Laporte","ID":"ap01047","STRAAT":"Dorpstraat","HUISNR":"18","POSTCODE":"2180","DISTRICT":"EKEREN"},"geometry":{"type":"Point","coordinates":[4.418432502893895,51.278671716687406]}},{"type":"Feature","properties":{"OBJECTID":47071,"NAAM":"Apotheek Smet & Van Assche","ID":"ap01049","STRAAT":"Drakenhoflaan","HUISNR":"60","POSTCODE":"2100","DISTRICT":"DEURNE"},"geometry":{"type":"Point","coordinates":[4.4589682764529215,51.196355958818884]}},{"type":"Feature","properties":{"OBJECTID":47072,"NAAM":"Apotheek Eliaerts - AFS 49","ID":"ap01050","STRAAT":"Eliaertsstraat","HUISNR":"1","POSTCODE":"2140","DISTRICT":"BORGERHOUT"},"geometry":{"type":"Point","coordinates":[4.434179301792924,51.214818775032995]}},{"type":"Feature","properties":{"OBJECTID":47073,"NAAM":"Apotheek Generaal bvba","ID":"ap01051","STRAAT":"Generaal Lemanstraat","HUISNR":"10","POSTCODE":"2600","DISTRICT":"BERCHEM"},"geometry":{"type":"Point","coordinates":[4.410887722687628,51.197042098986415]}},{"type":"Feature","properties":{"OBJECTID":47074,"NAAM":"Apotheek Bosuil","ID":"ap01052","STRAAT":"Gijsbrecht van Deurnelaan","HUISNR":"33","POSTCODE":"2100","DISTRICT":"DEURNE"},"geometry":{"type":"Point","coordinates":[4.461389730336495,51.2322289134923]}},{"type":"Feature","properties":{"OBJECTID":47075,"NAAM":"Apotheek Cortebeeck","ID":"ap01053","STRAAT":"Grote Markt","HUISNR":"56","POSTCODE":"2000","DISTRICT":"ANTWERPEN"},"geometry":{"type":"Point","coordinates":[4.401349930329201,51.220986027647655]}},{"type":"Feature","properties":{"OBJECTID":47076,"NAAM":"Apotheek Levecque","ID":"ap01054","STRAAT":"Italielei","HUISNR":"79","POSTCODE":"2000","DISTRICT":"ANTWERPEN"},"geometry":{"type":"Point","coordinates":[4.414975764709438,51.22682120787005]}},{"type":"Feature","properties":{"OBJECTID":47077,"NAAM":"Apotheek Rozemaai","ID":"ap01055","STRAAT":"Jef Van Hoofstraat","HUISNR":"2","POSTCODE":"2030","DISTRICT":"ANTWERPEN"},"geometry":{"type":"Point","coordinates":[4.417536642448392,51.2686526198709]}},{"type":"Feature","properties":{"OBJECTID":47078,"NAAM":"Apotheek Zaghbour","ID":"ap01056","STRAAT":"Lakborslei","HUISNR":"191","POSTCODE":"2100","DISTRICT":"DEURNE"},"geometry":{"type":"Point","coordinates":[4.4542161275371575,51.22466403284736]}},{"type":"Feature","properties":{"OBJECTID":47079,"NAAM":"De Lindeboom Sur Plus","ID":"ap01057","STRAAT":"Lange Lozanastraat","HUISNR":"103","POSTCODE":"2018","DISTRICT":"ANTWERPEN"},"geometry":{"type":"Point","coordinates":[4.405271773378893,51.203452676272384]}},{"type":"Feature","properties":{"OBJECTID":47080,"NAAM":"Apotheek The Pharm","ID":"ap01058","STRAAT":"Lange Stuivenbergstraat","HUISNR":"76","POSTCODE":"2060","DISTRICT":"ANTWERPEN"},"geometry":{"type":"Point","coordinates":[4.431409371885692,51.22439989374775]}},{"type":"Feature","properties":{"OBJECTID":47081,"NAAM":"Apotheek Ronny Smeyers","ID":"ap01059","STRAAT":"Leopoldlei","HUISNR":"103","POSTCODE":"2180","DISTRICT":"EKEREN"},"geometry":{"type":"Point","coordinates":[4.440171463126152,51.29379804520408]}},{"type":"Feature","properties":{"OBJECTID":47082,"NAAM":"Apotheek Oomen","ID":"ap01060","STRAAT":"Maantjessteenweg","HUISNR":"2","POSTCODE":"2170","DISTRICT":"MERKSEM"},"geometry":{"type":"Point","coordinates":[4.446975972458849,51.25445702608124]}},{"type":"Feature","properties":{"OBJECTID":47083,"NAAM":"Apotheek Melkmarkt","ID":"ap01061","STRAAT":"Melkmarkt","HUISNR":"33","POSTCODE":"2000","DISTRICT":"ANTWERPEN"},"geometry":{"type":"Point","coordinates":[4.40289703411759,51.21986512712181]}},{"type":"Feature","properties":{"OBJECTID":47084,"NAAM":"Apotheek De Ferm - Cachet nv","ID":"ap01062","STRAAT":"Merksemheidelaan","HUISNR":"2","POSTCODE":"2170","DISTRICT":"MERKSEM"},"geometry":{"type":"Point","coordinates":[4.463302528953694,51.2536342296126]}},{"type":"Feature","properties":{"OBJECTID":47085,"NAAM":"Apotheek The +Pharm","ID":"ap01063","STRAAT":"Pothoekstraat","HUISNR":"12","POSTCODE":"2060","DISTRICT":"ANTWERPEN"},"geometry":{"type":"Point","coordinates":[4.436536837995761,51.22077006351486]}},{"type":"Feature","properties":{"OBJECTID":47086,"NAAM":"Apotheek Verheijen","ID":"ap01064","STRAAT":"Rucaplein","HUISNR":"54","POSTCODE":"2610","DISTRICT":"WILRIJK"},"geometry":{"type":"Point","coordinates":[4.4215685249965535,51.17853673632123]}},{"type":"Feature","properties":{"OBJECTID":47087,"NAAM":"Antwerp Port Pharmacy","ID":"ap01065","STRAAT":"Sint-Jansplein","HUISNR":"8","POSTCODE":"2060","DISTRICT":"ANTWERPEN"},"geometry":{"type":"Point","coordinates":[4.4185342635090725,51.22590185565516]}},{"type":"Feature","properties":{"OBJECTID":47088,"NAAM":"De Lindeboom Apotheek Hoboken","ID":"ap01066","STRAAT":"Verenigde Natieslaan","HUISNR":"45","POSTCODE":"2660","DISTRICT":"HOBOKEN"},"geometry":{"type":"Point","coordinates":[4.354362242685585,51.16435645626478]}},{"type":"Feature","properties":{"OBJECTID":47089,"NAAM":"De Wilde Zee","ID":"ap01039","STRAAT":"Nieuwe Gaanderij","HUISNR":"51","POSTCODE":"2000","DISTRICT":"ANTWERPEN"},"geometry":{"type":"Point","coordinates":[4.405209435651215,51.216905246295]}},{"type":"Feature","properties":{"OBJECTID":47090,"NAAM":"De Lindeboom Lange Lozanastraat","ID":"ap01068","STRAAT":"Lange Lozanastraat","HUISNR":"81","POSTCODE":"2018","DISTRICT":"ANTWERPEN"},"geometry":{"type":"Point","coordinates":[4.404825704449045,51.20426140307823]}},{"type":"Feature","properties":{"OBJECTID":47091,"NAAM":"Instapharma BV\r\n","ID":"ap01069","STRAAT":"Abdijstraat","HUISNR":"115","POSTCODE":"2020","DISTRICT":"ANTWERPEN"},"geometry":{"type":"Point","coordinates":[4.382613982489257,51.18853785128181]}},{"type":"Feature","properties":{"OBJECTID":47092,"NAAM":"Apham NV\r\n","ID":"ap01070","STRAAT":"Antwerpsesteenweg","HUISNR":"182","POSTCODE":"2660","DISTRICT":"HOBOKEN"},"geometry":{"type":"Point","coordinates":[4.361035152583459,51.17891910631459]}},{"type":"Feature","properties":{"OBJECTID":47093,"NAAM":"Buyck NV","ID":"ap01071","STRAAT":"Bouvaertlaan","HUISNR":"31","POSTCODE":"2050","DISTRICT":"ANTWERPEN"},"geometry":{"type":"Point","coordinates":[4.386031828379904,51.231477637249]}},{"type":"Feature","properties":{"OBJECTID":47094,"NAAM":"Apotheek Melisse BV\r\n","ID":"ap01072","STRAAT":"Frans Adriaenssensstraat","HUISNR":"126","POSTCODE":"2170","DISTRICT":"MERKSEM"},"geometry":{"type":"Point","coordinates":[4.442201867032655,51.2543160588491]}},{"type":"Feature","properties":{"OBJECTID":47095,"NAAM":"Perifar CV\r\n","ID":"ap01073","STRAAT":"Herentalsebaan","HUISNR":"419","POSTCODE":"2100","DISTRICT":"DEURNE"},"geometry":{"type":"Point","coordinates":[4.47193683821067,51.20602911825207]}},{"type":"Feature","properties":{"OBJECTID":47096,"NAAM":"Apotheek De Molen - Homeosan BV","ID":"ap01074","STRAAT":"Kapelsesteenweg","HUISNR":"617","POSTCODE":"2180","DISTRICT":"EKEREN"},"geometry":{"type":"Point","coordinates":[4.441908705517354,51.294786269616765]}},{"type":"Feature","properties":{"OBJECTID":47097,"NAAM":"Global E-Care","ID":"ap01075","STRAAT":"Kattendijkdok-Westkaai","HUISNR":"41","POSTCODE":"2000","DISTRICT":"ANTWERPEN"},"geometry":{"type":"Point","coordinates":[4.405645133813281,51.231574389123445]}},{"type":"Feature","properties":{"OBJECTID":47098,"NAAM":"Apoteek van het Museum NV","ID":"ap01075","STRAAT":"Lambermontplaats","HUISNR":"16","POSTCODE":"2000","DISTRICT":"ANTWERPEN"},"geometry":{"type":"Point","coordinates":[4.391722323215333,51.20688132461752]}},{"type":"Feature","properties":{"OBJECTID":47099,"NAAM":"Apotheek De Moor","ID":"ap01075","STRAAT":"Lange Lobroekstraat","HUISNR":"205","POSTCODE":"2060","DISTRICT":"ANTWERPEN"},"geometry":{"type":"Point","coordinates":[4.427656422966142,51.2313829824642]}},{"type":"Feature","properties":{"OBJECTID":47100,"NAAM":"Vroome Pharma Management BV","ID":"ap01076","STRAAT":"Oever","HUISNR":"8","POSTCODE":"2000","DISTRICT":"ANTWERPEN"},"geometry":{"type":"Point","coordinates":[4.396647584791177,51.21811867407169]}},{"type":"Feature","properties":{"OBJECTID":47101,"NAAM":"Stelieco BV\r\n","ID":"ap01077","STRAAT":"Oorderseweg","HUISNR":"152","POSTCODE":"2180","DISTRICT":"EKEREN"},"geometry":{"type":"Point","coordinates":[4.411773616265006,51.28167508536012]}},{"type":"Feature","properties":{"OBJECTID":47102,"NAAM":"Apotheek Verlinden\r\n","ID":"ap01078","STRAAT":"Putsebaan","HUISNR":"24","POSTCODE":"2040","DISTRICT":"BERENDRECHT-ZANDVLIET-LILLO"},"geometry":{"type":"Point","coordinates":[4.316300135069372,51.35892573542884]}},{"type":"Feature","properties":{"OBJECTID":47103,"NAAM":"Apotheek Croket BV","ID":"ap01079","STRAAT":"Quinten Matsijslei","HUISNR":"11","POSTCODE":"2018","DISTRICT":"ANTWERPEN"},"geometry":{"type":"Point","coordinates":[4.4164019563185875,51.214295204224555]}},{"type":"Feature","properties":{"OBJECTID":47104,"NAAM":"Apotheek Van Moer","ID":"ap01080","STRAAT":"Sint-Bernardsesteenweg","HUISNR":"227","POSTCODE":"2020","DISTRICT":"ANTWERPEN"},"geometry":{"type":"Point","coordinates":[4.3757253607231155,51.186806862382326]}},{"type":"Feature","properties":{"OBJECTID":47105,"NAAM":"Apotheek Evelyne Djan\r\n","ID":"ap01081","STRAAT":"Van Breestraat","HUISNR":"18","POSTCODE":"2018","DISTRICT":"ANTWERPEN"},"geometry":{"type":"Point","coordinates":[4.408857353110162,51.21029881663151]}},{"type":"Feature","properties":{"OBJECTID":47106,"NAAM":"Apharmat BV","ID":"ap01082","STRAAT":"Van Eycklei","HUISNR":"47","POSTCODE":"2018","DISTRICT":"ANTWERPEN"},"geometry":{"type":"Point","coordinates":[4.4172561773098975,51.209831418589445]}},{"type":"Feature","properties":{"OBJECTID":47107,"NAAM":"Farduci BV","ID":"ap01082","STRAAT":"Venneborglaan","HUISNR":"174","POSTCODE":"2100","DISTRICT":"DEURNE"},"geometry":{"type":"Point","coordinates":[4.477330554069726,51.22465325104953]}},{"type":"Feature","properties":{"OBJECTID":47108,"NAAM":"Yzewyn BV\r\n","ID":"ap01083","STRAAT":"Bisschoppenhoflaan","HUISNR":"444","POSTCODE":"2100","DISTRICT":"Deurne"},"geometry":{"type":"Point","coordinates":[4.469617372297269,51.2341807357151]}},{"type":"Feature","properties":{"OBJECTID":47109,"NAAM":"Apotheek GA Mast CV","ID":"ap01084","STRAAT":"Kerkstraat","HUISNR":"2","POSTCODE":"2060","DISTRICT":"Antwerpen"},"geometry":{"type":"Point","coordinates":[4.428888400045593,51.21757782228582]}},{"type":"Feature","properties":{"OBJECTID":47110,"NAAM":"G.A. Markgrave - AFS 46","ID":"ap01084","STRAAT":"Markgravelei","HUISNR":"32","POSTCODE":"2018","DISTRICT":"ANTWERPEN"},"geometry":{"type":"Point","coordinates":[4.399950171774986,51.19970914292328]}},{"type":"Feature","properties":{"OBJECTID":47111,"NAAM":"Medi-Market Antwerpen Wapper","ID":"ap01085","STRAAT":"Schuttershofstraat","HUISNR":"48","POSTCODE":"2000","DISTRICT":"ANTWERPEN"},"geometry":{"type":"Point","coordinates":[4.408892300937104,51.216241496506264]}}]}